"Year","District","School","Long","Lat","Test","Age","Shprev","Smanprev","anySCHprev"
2017,"CHIKWAWA","Chidimba",34.62314942,-16.32405833,"KK/UF","1114",0.0333333333333333,0,0.0333333333333333
2017,"CHIKWAWA","Dolo School",34.92149295,-16.54948421,"KK/UF","1014",0,0,0
2017,"CHIKWAWA","Dzimbiri CP School",34.7485167,-15.93088519,"KK/UF","1114",0.0666666666666667,0,0.0666666666666667
2017,"CHIKWAWA","Goma School",34.85768748,-16.39322404,"KK/UF","1114",0.333333333333333,0,0.333333333333333
2017,"CHIKWAWA","Jeke  JP School",34.941145,-16.16340969,"KK/UF","1114",0.103448275862069,0,0.103448275862069
2017,"CHIKWAWA","Lalanje School",35.02116997,-16.52293686,"KK/UF","1014",0.233333333333333,0,0.233333333333333
2017,"CHIKWAWA","Lengwe LEA School",34.79957864,-16.20180751,"KK/UF","1114",0.166666666666667,0,0.166666666666667
2017,"CHIKWAWA","Mitengo JP School",34.98339619,-16.18686643,"KK/UF","1014",0.166666666666667,0,0.166666666666667
2017,"CHIKWAWA","Mlambe School",34.85692756,-16.49901653,"KK/UF","1114",0.0333333333333333,0,0.0333333333333333
2017,"CHIKWAWA","Nabisi School",34.80862509,-16.40886389,"KK/UF","1014",0.25,0,0.25
2017,"CHIKWAWA","Nangale School",35.00158653,-16.21625547,"KK/UF","1114",0.0666666666666667,0,0.0666666666666667
2017,"CHIKWAWA","Njereza School",34.77495852,-15.96364637,"KK/UF","1014",0.2,0,0.2
2017,"CHIKWAWA","Phanda FP School",34.94088721,-16.57473093,"KK/UF","1114",0.233333333333333,0,0.233333333333333
2017,"CHIKWAWA","Sekeni",34.87437997,-16.28206161,"KK/UF","1014",0.3,0,0.3
2017,"CHIKWAWA","Therere FP School",34.64580108,-16.33712952,"KK/UF","1114",0.103448275862069,0,0.103448275862069
2017,"CHITIPA","Chibale",33.43485348,-9.620210437,"KK/UF","1014",0.133333333333333,0,0.133333333333333
2017,"CHITIPA","Chipwela School",33.52872506,-9.777221619,"KK/UF","1014",0.0666666666666667,0,0.0666666666666667
2017,"CHITIPA","Chisenga FP School",33.39747888,-9.987416854,"KK/UF","1014",0.0333333333333333,0,0.0333333333333333
2017,"CHITIPA","Chiwanga School",33.02222169,-9.444877484,"KK/UF","1014",0,0,0
2017,"CHITIPA","Ibabala School",33.47482684,-9.631828552,"KK/UF","1014",0,0,0
2017,"CHITIPA","Ifumbo FP School",33.40550516,-9.608343686,"KK/UF","1014",0.0333333333333333,0,0.0333333333333333
2017,"CHITIPA","Ilema School",33.32794122,-9.757568907,"KK/UF","1014",0.0333333333333333,0,0.0333333333333333
2017,"CHITIPA","Ipenza School",33.11451033,-9.478515042,"KK/UF","1015",0,0,0
2017,"CHITIPA","Karopa School",33.64422624,-10.21872332,"KK/UF","1014",0,0,0
2017,"CHITIPA","Malukwa School",33.10127513,-9.660171126,"KK/UF","1014",0.1,0,0.1
2017,"CHITIPA","Mbula School",33.35870814,-9.609519239,"KK/UF","1015",0.0333333333333333,0,0.0333333333333333
2017,"CHITIPA","Mubanga School",33.32968635,-9.788506174,"KK/UF","1014",0.0333333333333333,0,0.0333333333333333
2017,"CHITIPA","Mukule School",33.69114269,-10.11027794,"KK/UF","1015",0.0333333333333333,0,0.0333333333333333
2017,"CHITIPA","Mungo'ngo F.P School",33.4423257,-9.850981427,"KK/UF","1014",0.0666666666666667,0,0.0666666666666667
2017,"CHITIPA","Mwakalomba School",33.36579368,-9.562445916,"KK/UF","1014",0.1,0,0.1
2017,"CHITIPA","Nahayombo School",33.17782462,-9.560478056,"KK/UF","1014",0,0,0
2017,"CHITIPA","Namuchese FP School",33.47881273,-9.824141649,"KK/UF","1015",0,0,0
2017,"CHITIPA","Nthalire LEA School",33.63293556,-10.35098801,"KK/UF","1014",0.0333333333333333,0,0.0333333333333333
2017,"CHITIPA","St Ignitious School",33.64125,-10.3513,"KK/UF","1014",0,0,0
2017,"CHITIPA","Ukanga School",33.48725674,-10.12664237,"KK/UF","1014",0.0666666666666667,0,0.0666666666666667
2017,"CHITIPA","Yamba School",33.35410706,-9.686954052,"KK/UF","1014",0.166666666666667,0,0.166666666666667
2017,"DEDZA","Chigwenembe School",34.18887265,-14.3460171,"KK/UF","1014",0,0.0333333333333333,0.0333333333333333
2017,"DEDZA","Chikwawa School",34.57111055,-14.28461726,"KK/UF","1012",0.233333333333333,0.166666666666667,0.366666666666667
2017,"DEDZA","Chimkombero School",34.4232492,-14.30317483,"KK/UF","1014",0.0666666666666667,0,0.0666666666666667
2017,"DEDZA","Chinkhumbe School",34.5281984,-14.21324566,"KK/UF","1014",0.0666666666666667,0.266666666666667,0.333333333333333
2017,"DEDZA","Kaimvi FP School",33.96002069,-14.38378731,"KK/UF","1014",0.166666666666667,0,0.166666666666667
2017,"DEDZA","Kalira School",34.49902535,-14.26776028,"KK/UF","1014",0.0333333333333333,0.0666666666666667,0.1
2017,"DEDZA","Katayila",34.58319275,-14.18247592,"KK/UF","1013",0.233333333333333,0.0666666666666667,0.233333333333333
2017,"DEDZA","Madzumbi School",34.38048584,-14.13203053,"KK/UF","1014",0.0666666666666667,0.0666666666666667,0.133333333333333
2017,"DEDZA","Malambalala School",34.59088995,-14.41415726,"KK/UF","1014",0.0333333333333333,0,0.0333333333333333
2017,"DEDZA","Malimba School",33.89330623,-14.34894462,"KK/UF","1014",0.233333333333333,0,0.233333333333333
2017,"DEDZA","Mankhamba School",34.51696888,-14.23483836,"KK/UF","1013",0.0666666666666667,0.1,0.166666666666667
2017,"DEDZA","Mchezime R.C School",34.52217016,-14.13361671,"KK/UF","1014",0,0,0
2017,"DEDZA","Mganja School",34.52074464,-14.41619077,"KK/UF","1014",0.1,0,0.1
2017,"DEDZA","Mgawi 2 School",34.26694249,-13.98588913,"KK/UF","1014",0.133333333333333,0.1,0.233333333333333
2017,"DEDZA","Mkomba School",34.22820013,-14.12337393,"KK/UF","1013",0,0.233333333333333,0.233333333333333
2017,"DEDZA","Mtonya FP School",34.4363404,-14.39870476,"KK/UF","1012",0,0,0
2017,"DEDZA","Ngoni School",34.5674595,-14.35846393,"KK/UF","1014",0,0,0
2017,"DEDZA","Nsinda School",34.15689691,-14.21292093,"KK/UF","1014",0.0666666666666667,0,0.0666666666666667
2017,"DEDZA","Tapezana School",34.5810835,-14.37627668,"KK/UF","1014",0,0,0
2017,"DEDZA","Tsanya School",34.61505263,-14.38118961,"KK/UF","1013",0.1,0.0333333333333333,0.133333333333333
2017,"DOWA","Banga School",34.2751622,-13.70627075,"KK/UF","1014",0,0,0
2017,"DOWA","Chilima School",33.81720762,-13.57912823,"KK/UF","1014",0,0,0
2017,"DOWA","Daimoni School",33.53416025,-13.64205096,"KK/UF","1014",0,0,0
2017,"DOWA","Dowa 2 School",33.92911506,-13.65465901,"KK/UF","1013",0,0,0
2017,"DOWA","James FP School",33.99829028,-13.63633688,"KK/UF","1014",0,0,0
2017,"DOWA","Kasumba School",34.1146,-13.64365,"KK/UF","1014",0,0,0
2017,"DOWA","Katundu",34.03031394,-13.79505626,"KK/UF","1015",0,0,0
2017,"DOWA","Kavuu School",34.09386699,-13.54653594,"KK/UF","1013",0,0,0
2017,"DOWA","Kawangwi School",34.25429428,-13.75170312,"KK/UF","1014",0.1,0,0.1
2017,"DOWA","Kayembe School",33.58295543,-13.64447518,"KK/UF","1014",0,0,0
2017,"DOWA","Milore School",33.50933218,-13.54863332,"KK/UF","1014",0.0344827586206897,0,0.0344827586206897
2017,"DOWA","Miwale",33.82468175,-13.49734822,"KK/UF","1014",0,0,0
2017,"DOWA","Mnkhamanga School",33.67662111,-13.48555473,"KK/UF","1013",0,0,0
2017,"DOWA","Mpangiseni School",33.97932783,-13.68165266,"KK/UF","1014",0,0,0
2017,"DOWA","Mpatawadzombe School",33.92637324,-13.53708007,"KK/UF","1014",0,0,0
2017,"DOWA","Mundundu School",33.52605132,-13.69704727,"KK/UF","1014",0,0,0
2017,"DOWA","Nalikonda School",33.65967675,-13.61879414,"KK/UF","1014",0,0,0
2017,"DOWA","Nalunga School",34.06562374,-13.64023087,"KK/UF","1013",0.0333333333333333,0,0.0333333333333333
2017,"DOWA","Namwiri/Aimalandiwo School",33.74591268,-13.61359473,"KK/UF","1014",0.0344827586206897,0,0.0344827586206897
2017,"DOWA","Pheleni School",34.01325951,-13.71687994,"KK/UF","1014",0,0,0
2017,"DOWA","St Francis",33.60625269,-13.40779795,"KK/UF","1114",0,0,0
2017,"DOWA","Tsikiti L E A  School",34.15906779,-13.79550368,"KK/UF","1014",0,0.0666666666666667,0.0666666666666667
2017,"KARONGA","Baka",33.92246407,-9.93539449,"KK/UF","1015",0,0,0
2017,"KARONGA","Chimati School",NA,NA,"KK/UF","1014",0.172413793103448,0,0.172413793103448
2017,"KARONGA","Chinsogholo School",33.98408324,-10.08872625,"KK/UF","1015",0,0,0
2017,"KARONGA","Doroba",34.12706209,-10.43342145,"KK/UF","1014",0.0333333333333333,0.0344827586206897,0.0666666666666667
2017,"KARONGA","Fulirwa School",34.09803304,-10.44789983,"KK/UF","1014",0.0344827586206897,0,0.0344827586206897
2017,"KARONGA","Fwira",33.89112509,-9.800736298,"KK/UF","1014",0.1,0,0.1
2017,"KARONGA","K and K",33.92829922,-9.940838941,"KK/UF","1013",0,0,0
2017,"KARONGA","Kafa Private",33.86769005,-9.742950076,"KK/UF","0915",0.113636363636364,0.0227272727272727,0.113636363636364
2017,"KARONGA","Kafulu",33.82713626,-9.754670287,"KK/UF","1014",0,0.178571428571429,0.172413793103448
2017,"KARONGA","Karonga Old Mission 1 School",33.93992545,-9.95110873,"KK/UF","1013",0,0,0
2017,"KARONGA","Kasantha",33.83966003,-9.742996725,"KK/UF","1014",0.0666666666666667,0,0.0666666666666667
2017,"KARONGA","Lulindo School",33.93299129,-9.937072732,"KK/UF","1013",0,0,0
2017,"KARONGA","Matatula School",34.16598403,-10.35520432,"KK/UF","1014",0,0,0
2017,"KARONGA","Mbande Primary School",33.83227086,-9.952328516,"KK/UF","0812",0,0,0
2017,"KARONGA","Mlare School",34.04331937,-10.17409179,"KK/UF","1013",0,0,0
2017,"KARONGA","Ngerenge Primary School",33.85071444,-9.812900172,"KK/UF","1013",0,0.0666666666666667,0.0666666666666667
2017,"KARONGA","Nyungwe School",34.10649265,-10.28819302,"KK/UF","1014",0,0.0333333333333333,0.0333333333333333
2017,"KARONGA","Phapa School",34.16073108,-10.29274796,"KK/UF","1015",0.0666666666666667,0,0.0666666666666667
2017,"KARONGA","St Joseph Primary School",33.82860034,-10.02939075,"KK/UF","1014",0.0344827586206897,0,0.0344827586206897
2017,"KARONGA","The Kings Institute Of Education Foundtion",33.89463,-9.95644,"KK/UF","1010",0,0,0
2017,"KARONGA","Tilora School",34.17233828,-10.32607066,"KK/UF","1012",0,0,0
2017,"KASUNGU","Chakhala School",33.3514492,-13.32334699,"KK/UF","1014",0.1,0,0.1
2017,"KASUNGU","Chalizya School",33.65085271,-12.85438511,"KK/UF","1014",0.366666666666667,0,0.366666666666667
2017,"KASUNGU","Chalowa School",33.36681958,-13.07601781,"KK/UF","1014",0.0666666666666667,0,0.0666666666666667
2017,"KASUNGU","Chamatete School",33.36653028,-13.17969884,"KK/UF","1014",0,0,0
2017,"KASUNGU","Changuluwe",33.31709009,-13.09799603,"KK/UF","1014",0.0666666666666667,0,0.0666666666666667
2017,"KASUNGU","Chanjobvu School",33.45086978,-12.71146134,"KK/UF","1015",0.1,0,0.1
2017,"KASUNGU","Chasato School",33.63862445,-13.21406633,"KK/UF","1013",0.1,0,0.1
2017,"KASUNGU","Chatalala School",33.48865092,-13.32473217,"KK/UF","0611",0.0833333333333333,0,0.0833333333333333
2017,"KASUNGU","Chidongo School",33.37602183,-13.04369691,"KK/UF","1014",0.0666666666666667,0,0.0666666666666667
2017,"KASUNGU","Chimwaye School",33.66203598,-13.1145725,"KK/UF","1014",0.0666666666666667,0,0.0666666666666667
2017,"KASUNGU","Chinguwo School",33.57175594,-13.17233899,"KK/UF","1014",0.0333333333333333,0,0.0333333333333333
2017,"KASUNGU","Chipata School",33.55298601,-12.57062093,"KK/UF","1014",0.0666666666666667,0,0.0666666666666667
2017,"KASUNGU","Empundwini School",33.53731838,-12.54129411,"KK/UF","1014",0.133333333333333,0,0.133333333333333
2017,"KASUNGU","Gogo",33.08831936,-13.32431665,"KK/UF","1014",0.3,0,0.3
2017,"KASUNGU","Kachembwe School",NA,NA,"KK/UF","1013",0.1,0.0333333333333333,0.133333333333333
2017,"KASUNGU","Kambira School",33.78948144,-12.82369204,"KK/UF","1014",0.0666666666666667,0,0.0666666666666667
2017,"KASUNGU","Kamwala LEA School",33.52384524,-13.0376415,"KK/UF","1014",0.0689655172413793,0,0.0689655172413793
2017,"KASUNGU","Kasambankhole School",33.69459103,-12.73649808,"KK/UF","1014",0.2,0,0.2
2017,"KASUNGU","Katunda School",33.70184838,-12.96299193,"KK/UF","1014",0.0666666666666667,0,0.0666666666666667
2017,"KASUNGU","Mayala School",33.61903994,-13.1912036,"KK/UF","0611",0.0272727272727273,0.00909090909090909,0.0363636363636364
2017,"KASUNGU","Misozi School",33.34187187,-13.2954374,"KK/UF","1014",0.0333333333333333,0,0.0333333333333333
2017,"KASUNGU","Nkhakama School",33.48922177,-12.43034766,"KK/UF","1014",0.0333333333333333,0,0.0333333333333333
2017,"MACHINGA","Chinguni School",35.2687582,-15.07123651,"KK/UF","1014",0.172413793103448,0,0.172413793103448
2017,"MACHINGA","Chisese School",35.76365419,-14.80076464,"KK/UF","1114",0.1,0,0.1
2017,"MACHINGA","Chiuta School",35.84161216,-14.74856269,"KK/UF","1114",0.266666666666667,0,0.266666666666667
2017,"MACHINGA","Daimani School",35.63485025,-14.92806645,"KK/UF","1014",0.1,0,0.1
2017,"MACHINGA","Limera School",35.70482387,-14.90719808,"KK/UF","1014",0.0666666666666667,0,0.0666666666666667
2017,"MACHINGA","Madziabango School",35.3451581,-15.08953707,"KK/UF","1114",0.166666666666667,0,0.166666666666667
2017,"MACHINGA","Makwera School",35.68027639,-14.79095368,"KK/UF","1114",0.0333333333333333,0,0.0333333333333333
2017,"MACHINGA","Mgwiriza School",35.57641563,-14.89485005,"KK/UF","1014",0.0666666666666667,0,0.0666666666666667
2017,"MACHINGA","Msewe Primary School",35.60813308,-14.84319245,"KK/UF","1014",0.0333333333333333,0,0.0333333333333333
2017,"MACHINGA","Namandanje School",35.48059462,-14.88332128,"KK/UF","1014",0.1,0,0.1
2017,"MACHINGA","Nambweso School",35.77165962,-14.77110143,"KK/UF","1014",0.233333333333333,0,0.233333333333333
2017,"MACHINGA","Nanyumbu School",35.56997635,-14.85150867,"KK/UF","1114",0.133333333333333,0,0.133333333333333
2017,"MACHINGA","Ntangaye School",35.39751821,-14.7827137,"KK/UF","1114",0.133333333333333,0,0.133333333333333
2017,"MACHINGA","Ntapwa School",35.43083551,-14.87860934,"KK/UF","1014",0.1,0,0.1
2017,"MACHINGA","St Therese School",35.22692239,-15.06114746,"KK/UF","1013",0.133333333333333,0,0.133333333333333
2017,"MCHINJI","Chafuta",33.007297,-13.65466719,"KK/UF","1013",0.0333333333333333,0,0.0333333333333333
2017,"MCHINJI","Chigumba School",33.24306801,-13.82227418,"KK/UF","1014",0.1,0,0.1
2017,"MCHINJI","Chimteka II",33.21433081,-13.77112129,"KK/UF","1014",0,0,0
2017,"MCHINJI","Diti School",33.12652257,-13.56052393,"KK/UF","1014",0,0,0
2017,"MCHINJI","Kalanzi School",33.08840261,-13.93784211,"KK/UF","1014",0,0,0
2017,"MCHINJI","Kamangilira School",33.21183892,-13.71968265,"KK/UF","1014",0.0333333333333333,0,0.0333333333333333
2017,"MCHINJI","Kamuzu LEA School",32.89199252,-13.78963555,"KK/UF","1014",0.037037037037037,0,0.037037037037037
2017,"MCHINJI","Kanongo School",33.33262054,-13.99594476,"KK/UF","1014",0,0,0
2017,"MCHINJI","Katutula School",32.97557512,-13.44046811,"KK/UF","1013",0,0,0
2017,"MCHINJI","Kavumbwa LEA",33.2249687,-13.67392151,"KK/UF","1014",0,0,0
2017,"MCHINJI","Lameke School",32.98106131,-13.55372145,"KK/UF","1014",0.1,0,0.1
2017,"MCHINJI","Lombwa School",33.06339052,-13.47763004,"KK/UF","1014",0.1,0,0.1
2017,"MCHINJI","Manthalu School",33.19837045,-13.86686932,"KK/UF","1014",0,0,0
2017,"MCHINJI","Matimba School",33.21761112,-13.79307198,"KK/UF","1014",0,0,0
2017,"MCHINJI","Mikundi School",33.13887006,-13.70714043,"KK/UF","1014",0,0,0
2017,"MCHINJI","Mndomba School",33.05798723,-13.37282589,"KK/UF","1014",0.0333333333333333,0,0.0333333333333333
2017,"MCHINJI","Msemwe School",33.1655133,-13.83245264,"KK/UF","1013",0,0,0
2017,"MCHINJI","Mzura School",32.94035162,-13.79811832,"KK/UF","1014",0.0666666666666667,0,0.0666666666666667
2017,"MCHINJI","Ngoza School",32.92111078,-13.53401757,"KK/UF","1014",0,0,0
2017,"MCHINJI","Sunama School",32.99201156,-13.49069707,"KK/UF","1014",0.0666666666666667,0,0.0666666666666667
2017,"MCHINJI","Thomasi School",33.22693544,-13.69408802,"KK/UF","1014",0.0333333333333333,0,0.0333333333333333
2017,"MULANJE","Chigombe F.P School",35.61485278,-16.06102387,"KK/UF","1014",0.103448275862069,0,0.103448275862069
2017,"MULANJE","Chisitu FP School",35.43830629,-15.99802948,"KK/UF","1014",0.133333333333333,0,0.133333333333333
2017,"MULANJE","Gambula School",35.70560575,-16.07718663,"KK/UF","1014",0.103448275862069,0.0344827586206897,0.137931034482759
2017,"MULANJE","Kamwendo School",35.45834238,-15.66808444,"KK/UF","1014",0,0.0344827586206897,0.0333333333333333
2017,"MULANJE","Kanjedza School",35.2149,-17.0416,"KK/UF","1014",0.269230769230769,0,0.269230769230769
2017,"MULANJE","Kaphiri JP School",35.35965535,-15.89365684,"KK/UF","1014",0.166666666666667,0,0.166666666666667
2017,"MULANJE","Mendulo School",35.33685138,-15.99178822,"KK/UF","1014",0.0666666666666667,0,0.0666666666666667
2017,"MULANJE","Mwangothaya School",35.40513547,-15.89236774,"KK/UF","1014",0.266666666666667,0,0.266666666666667
2017,"MULANJE","Nachidwa School",35.78831401,-16.04006302,"KK/UF","1014",0.037037037037037,0,0.037037037037037
2017,"MULANJE","Naming'azi School",35.37534329,-16.04071305,"KK/UF","1014",0.0666666666666667,0,0.0666666666666667
2017,"MULANJE","Namulenga  Girls School",35.33220145,-15.86785433,"KK/UF","1014",0.0666666666666667,0,0.0666666666666667
2017,"MULANJE","Namulenga Boys",35.33220145,-15.86800523,"KK/UF","1014",0.2,0,0.2
2017,"MULANJE","Njeza School",35.50149731,-16.02586256,"KK/UF","1014",0.133333333333333,0,0.133333333333333
2017,"MULANJE","Samson School",35.47665766,-15.96334506,"KK/UF","1015",0.133333333333333,0,0.133333333333333
2017,"NSANJE","Chigwamafumu School",35.15659,-16.5237,"KK/UF","1014",0.266666666666667,0,0.266666666666667
2017,"NSANJE","Chilikha School",34.91195011,-16.67911374,"KK/UF","1014",0.0666666666666667,0,0.0666666666666667
2017,"NSANJE","ELIM Springs School",35.11249,-16.56627,"KK/UF","1014",0.2,0,0.2
2017,"NSANJE","Kanjedza School",35.46296046,-16.10606173,"KK/UF","1014",0.166666666666667,0,0.166666666666667
2017,"NSANJE","Khope JP School",35.19202493,-16.64963625,"KK/UF","1014",0.466666666666667,0,0.466666666666667
2017,"NSANJE","Mankhokwe School",35.21554402,-17.05839057,"KK/UF","1014",0.1,0,0.1
2017,"NSANJE","Masenjere FP School",35.09855088,-16.33647483,"KK/UF","1014",0.310344827586207,0,0.310344827586207
2017,"NSANJE","Matundu School",35.22678707,-17.01744581,"KK/UF","1014",0.366666666666667,0,0.366666666666667
2017,"NSANJE","Mguda School",35.28420603,-16.7550136,"KK/UF","1014",0.4,0,0.4
2017,"NSANJE","Mpepe School",35.21493655,-16.72415295,"KK/UF","1014",0.0689655172413793,0,0.0689655172413793
2017,"NSANJE","Muona School",35.15241197,-16.41997221,"KK/UF","1014",0.466666666666667,0,0.466666666666667
2017,"NSANJE","Namiyala School",35.18693823,-16.48127877,"KK/UF","1014",0.133333333333333,0,0.133333333333333
2017,"NSANJE","Nansongole School",35.29370151,-17.013246,"KK/UF","1014",0.733333333333333,0,0.733333333333333
2017,"NSANJE","Njiza School",35.17701564,-17.06649193,"KK/UF","1014",0,0,0
2017,"NSANJE","Tiza D P School",35.06143117,-16.62768139,"KK/UF","1014",0.0333333333333333,0,0.0333333333333333
2017,"PHALOMBE","Bona Primary School",35.60316695,-15.53212591,"KK/UF","1014",0.0689655172413793,0,0.0689655172413793
2017,"PHALOMBE","Chitekesa",35.56629958,-15.55274181,"KK/UF","1014",0.0666666666666667,0,0.0666666666666667
2017,"PHALOMBE","Chithumbwi School",35.5940028,-15.60922859,"KK/UF","1014",0.0333333333333333,0,0.0333333333333333
2017,"PHALOMBE","Dzanjo",35.65262916,-15.52577825,"KK/UF","1014",0.206896551724138,0,0.206896551724138
2017,"PHALOMBE","Likanani school",35.76522481,-15.92737362,"KK/UF","1014",0,0,0
2017,"PHALOMBE","Luwani School",35.80269108,-15.75512603,"KK/UF","1015",0,0,0
2017,"PHALOMBE","Makhanga School",35.78273036,-15.52853557,"KK/UF","1014",0.133333333333333,0,0.133333333333333
2017,"PHALOMBE","Malambwe School",35.63120726,-15.50645215,"KK/UF","1014",0,0,0
2017,"PHALOMBE","Mileme School",35.62657733,-15.53536564,"KK/UF","1014",0,0,0
2017,"PHALOMBE","Milonga School",35.6104738,-15.64630911,"KK/UF","1114",0.166666666666667,0,0.166666666666667
2017,"PHALOMBE","Mitekete School",35.66634748,-15.64235687,"KK/UF","1014",0,0,0
2017,"PHALOMBE","Mvunguti School",35.56289723,-15.69507027,"KK/UF","1014",0.166666666666667,0,0.166666666666667
2017,"PHALOMBE","Mwalawamphuno School",35.8206464,-15.6211375,"KK/UF","1014",0.0333333333333333,0,0.0333333333333333
2017,"PHALOMBE","Mwimba School",35.84370143,-15.52578669,"KK/UF","1014",0.266666666666667,0,0.266666666666667
2017,"PHALOMBE","Nambazo School",35.82034969,-15.55404858,"KK/UF","1014",0.166666666666667,0,0.166666666666667
2017,"PHALOMBE","Naminjiwa School",35.67059003,-15.75489484,"KK/UF","1014",0.1,0,0.1
2017,"PHALOMBE","Nanyowa School",35.78559547,-15.83982931,"KK/UF","1014",0.0333333333333333,0,0.0333333333333333
2017,"PHALOMBE","Nasiyaya School",35.71513012,-15.71033747,"KK/UF","1014",0,0,0
2017,"PHALOMBE","Ndungunya School",35.51344761,-15.69506312,"KK/UF","1014",0.172413793103448,0,0.172413793103448
2017,"PHALOMBE","Trust Pvt",NA,NA,"KK/UF","0615",0.166666666666667,0,0.166666666666667
2017,"RUMPHI","Bawa",33.58571532,-10.86806007,"KK/UF","1014",0,0,0
2017,"RUMPHI","Betere JP School",33.7180221,-11.05851826,"KK/UF","1013",0,0,0
2017,"RUMPHI","Bethel Mission Pvt",33.8485036,-11.02249546,"KK/UF","1014",0,0,0
2017,"RUMPHI","Bwang`ombe School",34.12697201,-10.82724343,"KK/UF","1014",0,0,0
2017,"RUMPHI","Chandamale School",33.84431,-11.01719,"KK/UF","1014",0,0,0
2017,"RUMPHI","Chanyoli School",33.73190703,-11.03588406,"KK/UF","1014",0,0,0
2017,"RUMPHI","Chivwaradi",34.02986875,-10.91856486,"KK/UF","1014",0,0,0
2017,"RUMPHI","Kafukwe J.P. School",33.98047041,-10.87724247,"KK/UF","1014",0,0,0
2017,"RUMPHI","Kambwiya School",34.10173,-10.76994,"KK/UF","1014",0,0,0
2017,"RUMPHI","Kasasa School",33.61779114,-10.87737229,"KK/UF","1014",0,0,0
2017,"RUMPHI","Kawaza Primary School",33.7442,-10.94939,"KK/UF","1015",0,0,0
2017,"RUMPHI","Linga School",33.94647699,-10.91946978,"KK/UF","1014",0,0,0
2017,"RUMPHI","Luhono School",33.63595624,-10.98822643,"KK/UF","1014",0,0,0
2017,"RUMPHI","Lundu School",33.73962999,-10.92418213,"KK/UF","1014",0.0333333333333333,0,0.0333333333333333
2017,"RUMPHI","Luwendela School",34.03757239,-10.74845114,"KK/UF","1014",0,0,0
2017,"RUMPHI","Mbulunji School",34.01561355,-10.82333354,"KK/UF","1015",0,0,0
2017,"RUMPHI","Mkombezi FP School",33.97684739,-10.94865579,"KK/UF","1014",0.0333333333333333,0,0.0333333333333333
2017,"RUMPHI","Mphande",33.75211632,-10.93345157,"KK/UF","1014",0,0,0
2017,"RUMPHI","Mphola School",33.54413,-10.86746,"KK/UF","1013",0,0,0
2017,"RUMPHI","Our Future",33.8611,-11.01203,"KK/UF","1114",0.0625,0,0.0625
2017,"RUMPHI","Phangala School",33.54606847,-10.80441178,"KK/UF","1014",0.103448275862069,0.0416666666666667,0.137931034482759
2017,"THYOLO","Chikolombe School",35.30366205,-16.06102984,"KK/UF","1014",0,0,0
2017,"THYOLO","Chipho School",35.2666487,-16.27433856,"KK/UF","1015",0.037037037037037,0,0.037037037037037
2017,"THYOLO","Lipho School",35.29543021,-16.26703753,"KK/UF","1014",0.0333333333333333,0.0666666666666667,0.1
2017,"THYOLO","Luchenza Catholic",35.3159425,-16.00323428,"KK/UF","1012",0,0,0
2017,"THYOLO","Makandi School",35.26129235,-15.9526687,"KK/UF","1012",0,0,0
2017,"THYOLO","Makapwa School",35.28198809,-16.18006882,"KK/UF","1014",0.2,0.107142857142857,0.3
2017,"THYOLO","Mandindi",35.22346778,-16.154305,"KK/UF","1014",0,0,0
2017,"THYOLO","Mankhamba 1 School",34.99534413,-15.97583108,"KK/UF","1013",0,0,0
2017,"THYOLO","Matete School",35.19081895,-16.32490372,"KK/UF","1014",0.133333333333333,0,0.133333333333333
2017,"THYOLO","Mathiya F.P.",35.19527896,-16.36787616,"KK/UF","1013",0.1,0.0333333333333333,0.133333333333333
2017,"THYOLO","Mikate School",35.31426196,-16.12185506,"KK/UF","1014",0,0.275862068965517,0.275862068965517
2017,"THYOLO","Mira Breeze Pvt",35.0154,-16.00564,"KK/UF","1011",0,0,0
2017,"THYOLO","Mpasa Pvt",35.11316,-15.94597,"KK/UF","1013",0.0333333333333333,0,0.0333333333333333
2017,"THYOLO","Nakambwe School",35.15656562,-16.04033341,"KK/UF","1014",0,0,0
2017,"THYOLO","Namaona School",35.09769056,-15.97748781,"KK/UF","1014",0.166666666666667,0,0.166666666666667
2017,"THYOLO","Nandolo School",35.23507019,-16.18585798,"KK/UF","1014",0.0333333333333333,0.0434782608695652,0.0666666666666667
2017,"THYOLO","Nthulo School",35.19642869,-16.00670809,"KK/UF","1014",0,0,0
2017,"THYOLO","Sambambidzi School",35.4196,-16.1557,"KK/UF","0814",0.2,0,0.2
2017,"THYOLO","Sambani",35.22887258,-16.3097536,"KK/UF","1014",0.2,0,0.2
2017,"THYOLO","Tsukamayere School",35.11201127,-16.26547974,"KK/UF","1014",0.166666666666667,0.0357142857142857,0.166666666666667
2018,"balaka","bvumo",35.02131103,-14.90433665,"KK/UF","1014",0,0,0
2018,"balaka","chidalala",34.97220987,-15.02661075,"KK/UF","1014",0.0333333333333333,0,0.0333333333333333
2018,"balaka","chigumula",35.0677063,-14.9974329,"KK/UF","1013",0,0,0
2018,"balaka","chilanga",35.1842756,-14.9689336,"KK/UF","1014",0.0333333333333333,0.0333333333333333,0.0666666666666667
2018,"balaka","chimera",35.20370636,-15.02901281,"KK/UF","1014",0.0666666666666667,0,0.0666666666666667
2018,"balaka","dalabani",35.0217718,-14.87543,"KK/UF","1014",0.1,0,0.1
2018,"balaka","ferry",35.20815792,-15.05229812,"KK/UF","1014",0,0,0
2018,"balaka","kapalamula",34.8962424,-14.9571773,"KK/UF","1013",0.0333333333333333,0.037037037037037,0.0666666666666667
2018,"balaka","kapandatsisti",35.0971885,-14.9658799,"KK/UF","1014",0,0,0
2018,"balaka","mgomwa",35.0206674,-15.2305398,"KK/UF","1013",0.0333333333333333,0.0333333333333333,0.0666666666666667
2018,"balaka","mmanga",35.1848263,-15.0467449,"KK/UF","1014",0,0.0333333333333333,0.0333333333333333
2018,"balaka","mpiniumodzi",35.11688244,-14.84835358,"KK/UF","1014",0,0,0
2018,"balaka","mponda",34.9443327,-14.9856327,"KK/UF","1014",0,0,0
2018,"balaka","mthumba",35.0319979,-14.9374388,"KK/UF","1014",0,0,0
2018,"balaka","mtsimuke",34.9551464,-15.2632046,"KK/UF","1012",0,0,0
2018,"balaka","muthe",35.03260985,-15.12019287,"KK/UF","1014",0,0,0
2018,"balaka","namalomba",35.2011984,-14.8455053,"KK/UF","1014",0,0,0
2018,"balaka","namanolo",35.1877208,-15.002469,"KK/UF","1014",0,0.0333333333333333,0.0333333333333333
2018,"balaka","ng_onga",35.0327829,-15.0240204,"KK/UF","1014",0.0333333333333333,0,0.0333333333333333
2018,"balaka","rivirivi",34.9341712,-15.0262449,"KK/UF","1014",0.0666666666666667,0.0333333333333333,0.1
2018,"balaka","ulongwe_2",35.1716807,-14.8447552,"KK/UF","1014",0.0344827586206897,0,0.0344827586206897
2018,"balaka","yiwula",34.9980324,-14.8204353,"KK/UF","1014",0.0333333333333333,0,0.0333333333333333
2018,"blantyre_city","bangwe_catholic",35.0886638,-15.8244482,"KK/UF","1013",0,0,0
2018,"blantyre_city","chichiri",35.0437458,-15.802885,"KK/UF","1013",0.0333333333333333,0.0333333333333333,0.0666666666666667
2018,"blantyre_city","chilomoni_",34.97847382,-15.77853196,"KK/UF","1013",0,0,0
2018,"blantyre_city","future_leaders",34.9790481,-15.7635657,"KK/UF","1014",0,0,0
2018,"blantyre_city","kanjedza",35.0513162,-15.8124157,"KK/UF","1014",0,0,0
2018,"blantyre_city","kapeni_demonstration",35.0397763,-15.831969,"KK/UF","1014",0.0333333333333333,0.0333333333333333,0.0666666666666667
2018,"blantyre_city","limbe",35.0551647,-15.8093431,"KK/UF","1014",0.0333333333333333,0,0.0333333333333333
2018,"blantyre_city","little_chaps",34.99992717,-15.76389507,"KK/UF","1014",0,0,0
2018,"blantyre_city","love_of_god",35.0104054,-15.7460723,"KK/UF","1014",0.0666666666666667,0,0.0666666666666667
2018,"blantyre_city","mapazi",35.0894728,-15.698259,"KK/UF","1014",0.0333333333333333,0,0.0333333333333333
2018,"blantyre_city","mbayani_2",35.0091363,-15.7740559,"KK/UF","1013",0.0333333333333333,0,0.0333333333333333
2018,"blantyre_city","mpachika",35.014622,-15.8816117,"KK/UF","1014",0,0,0
2018,"blantyre_city","namame",35.0410056,-15.8551462,"KK/UF","1014",0,0.0333333333333333,0.0333333333333333
2018,"blantyre_city","panuel",35.07714553,-15.7746668,"KK/UF","1013",0,0,0
2018,"blantyre_city","thandiwe",35.0065999,-15.7736351,"KK/UF","1014",0,0,0
2018,"blantyre_rural","andiseni",34.9108137,-15.6764975,"KK/UF","1014",0,0.0666666666666667,0.0666666666666667
2018,"blantyre_rural","chigombe",34.8704595,-15.5988583,"KK/UF","1014",0.0333333333333333,0.0333333333333333,0.0666666666666667
2018,"blantyre_rural","chisawani",34.9618598,-15.8736396,"KK/UF","1014",0,0,0
2018,"blantyre_rural","chivumbe",35.0658315,-15.4745486,"KK/UF","1014",0.2,0,0.2
2018,"blantyre_rural","green_acres",35.0790978,-15.7328397,"KK/UF","1014",0.0333333333333333,0,0.0333333333333333
2018,"blantyre_rural","kachanga",34.9805402,-15.6860275,"KK/UF","1014",0.133333333333333,0,0.133333333333333
2018,"blantyre_rural","kachere_1",34.9355797,-15.5885554,"KK/UF","1014",0,0.0333333333333333,0.0333333333333333
2018,"blantyre_rural","katete",35.0195835,-15.4004374,"KK/UF","1014",0,0,0
2018,"blantyre_rural","lunzu",35.019648,-15.6484158,"KK/UF","1014",0.0333333333333333,0,0.0333333333333333
2018,"blantyre_rural","manyowe",34.9833825,-15.81052084,"KK/UF","1014",0,0,0
2018,"blantyre_rural","matindi",35.02434272,-15.59296372,"KK/UF","1014",0,0,0
2018,"blantyre_rural","mdeka",34.9368242,-15.4748503,"KK/UF","1011",0,0,0
2018,"blantyre_rural","michiru",34.9506049,-15.6981493,"KK/UF","1013",0.0666666666666667,0,0.0666666666666667
2018,"blantyre_rural","ngonga",35.0230967,-15.5498315,"KK/UF","1014",0,0,0
2018,"blantyre_rural","ngumbe",35.0039306,-15.695664,"KK/UF","1014",0,0,0
2018,"blantyre_rural","nkolokoti",35.07587675,-15.76328064,"KK/UF","1013",0,0,0
2018,"chiradzulu","chikangulu",35.2803807,-15.7838358,"KK/UF","1014",0.166666666666667,0.0333333333333333,0.2
2018,"chiradzulu","chimwankhunda",35.24853389,-15.71297018,"KK/UF","1014",0,0,0
2018,"chiradzulu","chiradzulu_f_p_school",35.1843087,-15.7015096,"KK/UF","1013",0,0,0
2018,"chiradzulu","choda",35.2465327,-15.8837542,"KK/UF","1114",0,0,0
2018,"chiradzulu","litchenza_f_p_school",35.2702556,-15.918821,"KK/UF","1014",0,0,0
2018,"chiradzulu","malire",35.3117778,-15.891505,"KK/UF","1013",0.266666666666667,0.0333333333333333,0.3
2018,"chiradzulu","mombezi",35.29277335,-15.7114981,"KK/UF","1013",0.0333333333333333,0,0.0333333333333333
2018,"chiradzulu","muluma",35.2323253,-15.6038808,"KK/UF","1014",0.366666666666667,0.448275862068966,0.6
2018,"chiradzulu","namadidi_f_p_school",35.2954892,-15.8751614,"KK/UF","1014",0.2,0,0.2
2018,"chiradzulu","namitambo_",35.2619326,-15.8425706,"KK/UF","1014",0.133333333333333,0.1,0.2
2018,"chiradzulu","nankhundi_cdss",35.2206775,-15.6758393,"KK/UF","1214",0,0,0
2018,"chiradzulu","ndunde_ccap_school",35.2437656,-15.6989736,"KK/UF","1014",0.0333333333333333,0.0666666666666667,0.1
2018,"chiradzulu","nguludi_boys_f_p_school",35.168283,-15.7998989,"KK/UF","1014",0,0.0333333333333333,0.0333333333333333
2018,"chiradzulu","nguludi_girls_f_p_school",35.1685482,-15.8007937,"KK/UF","1014",0,0,0
2018,"chiradzulu","zaone",35.1030595,-15.8353791,"KK/UF","1013",0,0,0
2018,"lilongwe_city","athens_l_l_pvt_school",33.7302771,-14.0073891,"KK/UF","1014",0,0,0
2018,"lilongwe_city","biwi_lea_school",33.7905631,-14.0034658,"KK/UF","1014",0,0,0
2018,"lilongwe_city","chankhandwe_lea",33.7291496,-14.0072023,"KK/UF","1014",0,0.0333333333333333,0.0333333333333333
2018,"lilongwe_city","chejika_pvt",33.7778434,-13.9419258,"KK/UF","1014",0,0,0
2018,"lilongwe_city","chinsapo__lea_school",33.7313273,-14.0139398,"KK/UF","1014",0.166666666666667,0.0357142857142857,0.166666666666667
2018,"lilongwe_city","chipala",33.77256386,-13.90469789,"KK/UF","1014",0,0,0
2018,"lilongwe_city","grace_spring_christian_pvt_school",33.76095382,-13.94108371,"KK/UF","1014",0,0,0
2018,"lilongwe_city","guide_us_education_centre",33.8244989,-14.0029898,"KK/UF","1014",0,0,0
2018,"lilongwe_city","kabwabwa_school",33.7608395,-13.8851628,"KK/UF","1014",0,0.0344827586206897,0.0333333333333333
2018,"lilongwe_city","kafulu_lea_school",33.7939033,-14.0053114,"KK/UF","1014",0,0,0
2018,"lilongwe_city","kakule__c_p_school",33.7158128,-14.0176646,"KK/UF","1014",0.0333333333333333,0.0333333333333333,0.0666666666666667
2018,"lilongwe_city","kamkodola_lea",33.73548417,-13.94161112,"KK/UF","1014",0,0,0
2018,"lilongwe_city","kawale_lea_school",33.8001068,-13.9889948,"KK/UF","1014",0,0,0
2018,"lilongwe_city","khumula_school",33.7862861,-13.9952443,"KK/UF","1014",0.0333333333333333,0,0.0333333333333333
2018,"lilongwe_city","lilongwe_demo_school",33.7764343,-13.8919725,"KK/UF","1014",0,0,0
2018,"lilongwe_city","mbuka",33.778055,-14.0143571,"KK/UF","1014",0,0,0
2018,"lilongwe_city","mchesi_school",33.7891659,-13.9866856,"KK/UF","1013",0,0,0
2018,"lilongwe_city","microtech_pvt",33.8215667,-13.9987927,"KK/UF","1014",0,0,0
2018,"lilongwe_city","mlodza_school",33.8195354,-14.0097276,"KK/UF","1014",0.0666666666666667,0,0.0666666666666667
2018,"lilongwe_city","msambachikho",33.8123258,-14.0443955,"KK/UF","1014",0.0333333333333333,0,0.0333333333333333
2018,"lilongwe_city","mtsiriza_school",33.7372056,-13.9521191,"KK/UF","1014",0,0,0
2018,"lilongwe_city","nguluwe_school",33.7072896,-14.0051034,"KK/UF","1014",0,0.0333333333333333,0.0333333333333333
2018,"lilongwe_city","ngwenya_school",33.802358,-14.0228446,"KK/UF","1014",0.0333333333333333,0,0.0333333333333333
2018,"lilongwe_city","patrick_pvt_school",33.7749576,-13.916172,"KK/UF","1014",0,0,0
2018,"lilongwe_city","shire_urban_lea_school",33.7437597,-13.9242472,"KK/UF","1014",0,0,0
2018,"lilongwe_city","sos_primary_school",33.7926874,-14.0191256,"KK/UF","1014",0,0,0
2018,"lilongwe_city","sunnyside_pvt",33.721725,-14.0154938,"KK/UF","1014",0,0,0
2018,"lilongwe_city","uplift_pvt",33.7359255,-13.9428484,"KK/UF","1013",0.0333333333333333,0,0.0333333333333333
2018,"lilongwe_city","wisdom_foundation_pvt_school",33.7475186,-13.9178476,"KK/UF","1014",0,0,0
2018,"lilongwe_rural_east","chibubu",33.891604,-14.1285698,"KK/UF","1013",0.0333333333333333,0,0.0333333333333333
2018,"lilongwe_rural_east","chiponde",33.8581896,-13.7836024,"KK/UF","1014",0.0666666666666667,0,0.0666666666666667
2018,"lilongwe_rural_east","chiunjiza",33.6700942,-14.4070617,"KK/UF","1014",0.0333333333333333,0.0344827586206897,0.0666666666666667
2018,"lilongwe_rural_east","chiyembekezo",33.7282053,-14.1853116,"KK/UF","1014",0.133333333333333,0.0333333333333333,0.133333333333333
2018,"lilongwe_rural_east","dembo",33.9253687,-14.155381,"KK/UF","1014",0,0,0
2018,"lilongwe_rural_east","diaphwi",33.8131832,-14.3298494,"KK/UF","1014",0.0666666666666667,0.0344827586206897,0.1
2018,"lilongwe_rural_east","kalonga_cdss",33.6682977,-14.2007414,"KK/UF","1414",0,0,0
2018,"lilongwe_rural_east","kanthonga_school",33.9718525,-13.8394174,"KK/UF","1014",0,0,0
2018,"lilongwe_rural_east","katobo",33.6397971,-14.1967021,"KK/UF","1014",0.0333333333333333,0,0.0333333333333333
2018,"lilongwe_rural_east","kazika",33.90515788,-14.22582004,"KK/UF","1014",0,0,0
2018,"lilongwe_rural_east","makanya",33.93746095,-14.18846832,"KK/UF","1013",0,0,0
2018,"lilongwe_rural_east","matapila",33.97237333,-14.00939619,"KK/UF","1014",0,0,0
2018,"lilongwe_rural_east","mlale_seminary",33.7569884,-14.2362603,"KK/UF","1114",0,0,0
2018,"lilongwe_rural_east","mlodzenzi",33.909587,-14.2824646,"KK/UF","1014",0,0.0333333333333333,0.0333333333333333
2018,"lilongwe_rural_east","mpemba",33.838838,-14.2334098,"KK/UF","1014",0.2,0.0666666666666667,0.266666666666667
2018,"lilongwe_rural_east","msambang_ombe_fp_school",33.93975,-13.7785115,"KK/UF","1014",0.0666666666666667,0.103448275862069,0.133333333333333
2018,"lilongwe_rural_east","msanja",33.9896499,-13.96873714,"KK/UF","1014",0.0333333333333333,0,0.0333333333333333
2018,"lilongwe_rural_east","mselera_cdss",33.6576944,-14.3128832,"KK/UF","1214",0.0333333333333333,0,0.0333333333333333
2018,"lilongwe_rural_east","mwatibu",33.9114532,-14.0791407,"KK/UF","1014",0.0666666666666667,0.0689655172413793,0.0666666666666667
2018,"lilongwe_rural_east","namangwe__school",33.87631,-13.852184,"KK/UF","1014",0,0.0689655172413793,0.0666666666666667
2018,"lilongwe_rural_east","ng_ozi",33.88961,-14.0330119,"KK/UF","1014",0,0,0
2018,"lilongwe_rural_east","nyawale",33.89223811,-14.30359966,"KK/UF","1014",0,0,0
2018,"lilongwe_rural_east","sanjiko",33.8891091,-14.0335406,"KK/UF","1014",0.4,0.0333333333333333,0.433333333333333
2018,"lilongwe_rural_east","simalambo",33.6462059,-14.22722,"KK/UF","1012",0.0666666666666667,0,0.0666666666666667
2018,"lilongwe_rural_east","tione",33.6300429,-14.3383662,"KK/UF","1014",0.166666666666667,0,0.166666666666667
2018,"lilongwe_rural_west","amwiri",33.4434647,-14.1569117,"KK/UF","1014",0.1,0,0.1
2018,"lilongwe_rural_west","chikhutu",33.6821306,-13.748348,"KK/UF","1014",0,0.0333333333333333,0.0333333333333333
2018,"lilongwe_rural_west","chilinda",33.5623116,-14.0951633,"KK/UF","1014",0.0666666666666667,0.1,0.166666666666667
2018,"lilongwe_rural_west","chimgonera",33.5504762,-14.1582764,"KK/UF","1014",0.0333333333333333,0,0.0333333333333333
2018,"lilongwe_rural_west","chitedze_",33.6469585,-13.9832615,"KK/UF","1014",0,0,0
2018,"lilongwe_rural_west","dzama",33.2848168,-13.856301,"KK/UF","1014",0.0666666666666667,0,0.0666666666666667
2018,"lilongwe_rural_west","dzenza",33.746264,-13.8782939,"KK/UF","1014",0,0,0
2018,"lilongwe_rural_west","gome",33.5919306,-13.9578333,"KK/UF","1014",0,0.0333333333333333,0.0333333333333333
2018,"lilongwe_rural_west","kabudula",33.44623621,-13.81774344,"KK/UF","1014",0,0,0
2018,"lilongwe_rural_west","kabuthu",33.49984597,-13.87819306,"KK/UF","1014",0,0,0
2018,"lilongwe_rural_west","kalonga",33.5805368,-13.7769903,"KK/UF","1014",0.1,0,0.1
2018,"lilongwe_rural_west","kambwa",33.5054438,-13.7617675,"KK/UF","1014",0,0,0
2018,"lilongwe_rural_west","kamzimbi",33.43480424,-13.71010838,"KK/UF","1014",0,0,0
2018,"lilongwe_rural_west","kaphira",33.4585845,-14.1332726,"KK/UF","1014",0.1,0,0.1
2018,"lilongwe_rural_west","katete",33.592272,-14.2045202,"KK/UF","1014",0.0333333333333333,0,0.0333333333333333
2018,"lilongwe_rural_west","liwinga",33.34691388,-13.89592329,"KK/UF","1014",0,0,0
2018,"lilongwe_rural_west","malimbe",33.56014562,-13.93222062,"KK/UF","1014",0,0,0
2018,"lilongwe_rural_west","mbendera",33.6085808,-14.1074381,"KK/UF","1014",0,0,0
2018,"lilongwe_rural_west","mkoko",33.34540419,-13.91890293,"KK/UF","1014",0,0,0
2018,"lilongwe_rural_west","mkungula",33.5852327,-14.1368933,"KK/UF","1013",0,0,0
2018,"lilongwe_rural_west","mpondamwala",33.4524743,-13.6330748,"KK/UF","1014",0.0666666666666667,0,0.0666666666666667
2018,"lilongwe_rural_west","sankhani",33.6722457,-13.9583387,"KK/UF","1014",0,0,0
2018,"lilongwe_rural_west","sendwe_cdss",33.4086388,-13.5420237,"KK/UF","1314",0,0,0
2018,"lilongwe_rural_west","simumbe",33.3986273,-13.9087063,"KK/UF","1014",0.0333333333333333,0,0.0333333333333333
2018,"mzimba_north","_ezondweni",33.7478832,-11.3961213,"KK/UF","1014",0,0,0
2018,"mzimba_north","_lumemo",33.8429787,-11.0353649,"KK/UF","1013",0,0,0
2018,"mzimba_north","champhamba",33.6793492,-11.5106816,"KK/UF","1014",0,0,0
2018,"mzimba_north","chasamba",33.41424583,-11.2048637,"KK/UF","1014",0,0,0
2018,"mzimba_north","ehlekweni",33.8467859,-11.4176172,"KK/UF","1013",0.1,0,0.1
2018,"mzimba_north","emvuyeni",33.8249556,-11.3708257,"KK/UF","1014",0,0,0
2018,"mzimba_north","enukweni",33.8828266,-11.1802475,"KK/UF","1013",0.0666666666666667,0,0.0666666666666667
2018,"mzimba_north","holera",33.875614,-11.166235,"KK/UF","1014",0.0666666666666667,0,0.0666666666666667
2018,"mzimba_north","kafululu",33.79687539,-11.51533096,"KK/UF","1014",0,0,0
2018,"mzimba_north","kakululu",33.5857337,-11.4020775,"KK/UF","1014",0.166666666666667,0,0.166666666666667
2018,"mzimba_north","kampondo",33.4684709,-11.2464746,"KK/UF","1013",0.0333333333333333,0,0.0333333333333333
2018,"mzimba_north","kapondero",33.9867875,-11.2565717,"KK/UF","1014",0,0,0
2018,"mzimba_north","luhomero",33.9453616,-11.2673682,"KK/UF","1014",0,0,0
2018,"mzimba_north","matala",33.6111716,-11.379959,"KK/UF","1014",0.1,0,0.1
2018,"mzimba_north","matuli",33.89687013,-11.48686957,"KK/UF","1012",0,0,0
2018,"mzimba_north","mtndula",33.4751991,-11.224971,"KK/UF","1013",0.0333333333333333,0,0.0333333333333333
2018,"mzimba_north","mzalangwe",33.5657932,-11.6085131,"KK/UF","1014",0.0666666666666667,0,0.0666666666666667
2018,"mzimba_north","mzambazi",33.4493996,-11.4273194,"KK/UF","1014",0,0,0
2018,"mzimba_north","nyeremukile",33.50769653,-11.55588173,"KK/UF","1013",0,0,0
2018,"mzimba_north","sasa",33.5377209,-11.5845215,"KK/UF","1014",0.0666666666666667,0,0.0666666666666667
2018,"mzimba_north","st_michaels",33.8909643,-11.3730697,"KK/UF","1014",0,0,0
2018,"mzimba_north","zowe",33.5003565,-11.4485309,"KK/UF","1014",0,0,0
2018,"mzimba_south","chinungu",33.4934028,-12.0227407,"KK/UF","1014",0,0,0
2018,"mzimba_south","chipata",33.5731643,-12.2982965,"KK/UF","1014",0,0,0
2018,"mzimba_south","chizimya",33.3800335,-12.1241443,"KK/UF","1013",0.0333333333333333,0,0.0333333333333333
2018,"mzimba_south","edingeni",33.311802,-12.045373,"KK/UF","1014",0,0,0
2018,"mzimba_south","kalikumbi",33.3342865,-12.2020915,"KK/UF","1014",0,0,0
2018,"mzimba_south","kalowa",33.57648664,-11.85889888,"KK/UF","1013",0,0,0
2018,"mzimba_south","kamilawanthu",33.6451492,-12.607033,"KK/UF","1014",0.133333333333333,0,0.133333333333333
2018,"mzimba_south","kamombwa",33.3880929,-11.8611851,"KK/UF","1014",0.166666666666667,0.166666666666667,0.3
2018,"mzimba_south","kavyeyo",33.4546839,-12.1324177,"KK/UF","1012",0,0,0
2018,"mzimba_south","kazengo",33.5844882,-11.9060946,"KK/UF","1013",0.1,0,0.1
2018,"mzimba_south","kazingilira",33.6494231,-12.2828068,"KK/UF","1014",0.0666666666666667,0,0.0666666666666667
2018,"mzimba_south","mabiri",33.42850363,-12.24503536,"KK/UF","1014",0,0,0
2018,"mzimba_south","makazi",33.4034578,-11.9452162,"KK/UF","1014",0,0,0
2018,"mzimba_south","manyamula",33.4402475,-11.9376299,"KK/UF","1014",0.0666666666666667,0,0.0666666666666667
2018,"mzimba_south","matikija",33.3928248,-12.1675336,"KK/UF","1014",0,0,0
2018,"mzimba_south","mgungulu",33.7048247,-12.2114352,"KK/UF","1014",0,0,0
2018,"mzimba_south","mkazimasika",33.5796272,-12.5346305,"KK/UF","1014",0.0333333333333333,0,0.0333333333333333
2018,"mzimba_south","mtelemuka",33.4037471,-11.8148968,"KK/UF","1014",0,0,0
2018,"mzimba_south","mtenthe",33.49040603,-11.85764029,"KK/UF","1014",0,0,0
2018,"mzimba_south","mthonje",33.37053648,-11.77521522,"KK/UF","1014",0,0,0
2018,"mzimba_south","mzimba_lea",33.5895709,-11.8906069,"KK/UF","1013",0,0,0
2018,"mzimba_south","nkhutu",33.70854,-12.2971496,"KK/UF","1014",0,0,0
2018,"mzimba_south","thambani",33.496027,-11.9880065,"KK/UF","1014",0.0333333333333333,0,0.0333333333333333
2018,"mzimba_south","thoza",33.5237611,-12.0846749,"KK/UF","1014",0,0,0
2018,"mzimba_south","zubachulu",33.5049572,-11.9277304,"KK/UF","1014",0,0,0
2018,"mzuzu_city","area_1b",33.9944379,-11.4042938,"KK/UF","1014",0,0,0
2018,"mzuzu_city","chamalaza",34.0423267,-11.3753795,"KK/UF","1013",0.0333333333333333,0,0.0333333333333333
2018,"mzuzu_city","chiputula",34.01921279,-11.43692312,"KK/UF","1014",0,0,0
2018,"mzuzu_city","doroba",33.9856026,-11.3589785,"KK/UF","1014",0.0666666666666667,0.0333333333333333,0.1
2018,"mzuzu_city","geisha",33.9840617,-11.4797448,"KK/UF","1014",0,0,0
2018,"mzuzu_city","katawa",34.02731834,-11.44434155,"KK/UF","1013",0,0,0
2018,"mzuzu_city","katoto",34.0093668,-11.4588527,"KK/UF","1014",0,0,0
2018,"mzuzu_city","kaviwale",33.9789583,-11.4549779,"KK/UF","1014",0.0666666666666667,0,0.0666666666666667
2018,"mzuzu_city","lunyangwa",34.0256605,-11.4516321,"KK/UF","1014",0.0333333333333333,0,0.0333333333333333
2018,"mzuzu_city","masasa",34.0222569,-11.4754929,"KK/UF","1014",0.0666666666666667,0,0.0666666666666667
2018,"mzuzu_city","mchengautuwa_i",33.9929883,-11.4554607,"KK/UF","1014",0,0,0
2018,"mzuzu_city","mganthira",34.0465694,-11.432501,"KK/UF","1013",0,0,0
2018,"mzuzu_city","moyale",34.0372776,-11.4574072,"KK/UF","1013",0,0,0
2018,"mzuzu_city","msongwe",34.0436578,-11.4694101,"KK/UF","1014",0,0,0
2018,"mzuzu_city","mzuzu_ccap",34.0217504,-11.459405,"KK/UF","1014",0,0,0
2018,"mzuzu_city","mzuzu_foundation",33.9902145,-11.4252442,"KK/UF","1012",0,0,0
2018,"mzuzu_city","nambo",33.9815904,-11.4706444,"KK/UF","1014",0,0,0
2018,"mzuzu_city","nkhorongo",33.9860865,-11.3896378,"KK/UF","1014",0.1,0,0.1
2018,"mzuzu_city","sonda",33.97129438,-11.44082238,"KK/UF","1012",0,0,0
2018,"mzuzu_city","st_peters",34.0252237,-11.4526514,"KK/UF","1014",0,0,0
2018,"neno","chipindu_school",34.5917198,-15.6398228,"KK/UF","1014",0,0.0666666666666667,0.0666666666666667
2018,"neno","chirimbondo_school",34.57457685,-15.38705978,"KK/UF","1013",0,0,0
2018,"neno","chitika_school",34.6191793,-15.3927636,"KK/UF","1014",0.0333333333333333,0,0.0333333333333333
2018,"neno","chiuli_school",34.6950569,-15.3873533,"KK/UF","1014",0,0,0
2018,"neno","jimbe_school",34.6960355,-15.5537362,"KK/UF","1014",0.0333333333333333,0,0.0333333333333333
2018,"neno","kholombidzo_school",34.9026617,-15.3785339,"KK/UF","1014",0,0,0
2018,"neno","ligowe_school",34.652183,-15.4750346,"KK/UF","1014",0.0666666666666667,0,0.0666666666666667
2018,"neno","lisungwi_school",34.77676447,-15.4360091,"KK/UF","1014",0,0,0
2018,"neno","makali_school",34.6555005,-15.524926,"KK/UF","1014",0,0,0
2018,"neno","malizakamba_school",34.8200202,-15.4585494,"KK/UF","1014",0,0.0333333333333333,0.0333333333333333
2018,"neno","mchenga_school",34.630071,-15.255847,"KK/UF","1014",0,0,0
2018,"neno","mulaza_school",34.81026125,-15.43162448,"KK/UF","1014",0,0,0
2018,"neno","muonekera_school",34.7108402,-15.4146092,"KK/UF","1014",0.0333333333333333,0,0.0333333333333333
2018,"neno","muwangawokhota_school",34.6121214,-15.4555984,"KK/UF","1013",0,0,0
2018,"neno","namapanga_school",34.58995182,-15.45822562,"KK/UF","1014",0.0333333333333333,0,0.0333333333333333
2018,"neno","neno_school",34.6104465,-15.4365421,"KK/UF","1014",0,0,0
2018,"neno","nkhande_jp_school_chool",34.7649834,-15.4413329,"KK/UF","1014",0,0,0
2018,"neno","nkhombe_fp_school",34.7781663,-15.4119954,"KK/UF","1014",0,0,0
2018,"neno","nsambe_school",34.6124993,-15.2584339,"KK/UF","1014",0,0,0
2018,"neno","nsawedza_school",34.9349829,-15.2921034,"KK/UF","1014",0,0.0333333333333333,0.0333333333333333
2018,"ntcheu","bemvu",34.7123128,-14.8766208,"KK/UF","1014",0.0666666666666667,0.0666666666666667,0.1
2018,"ntcheu","bonongwe",34.8102917,-15.0487313,"KK/UF","1014",0,0,0
2018,"ntcheu","chauta",34.692836,-14.6413589,"KK/UF","1014",0,0,0
2018,"ntcheu","chigodi",34.54067065,-14.49115068,"KK/UF","1014",0,0,0
2018,"ntcheu","gomeza",34.6777859,-14.9030129,"KK/UF","1014",0.0666666666666667,0,0.0666666666666667
2018,"ntcheu","kandoma",34.6699989,-15.0387716,"KK/UF","1014",0,0,0
2018,"ntcheu","kanyimbo",34.5381283,-14.7175322,"KK/UF","1013",0,0,0
2018,"ntcheu","kapalamula",34.7142146,-14.7297892,"KK/UF","1014",0,0,0
2018,"ntcheu","kasisi",34.8229581,-14.9998819,"KK/UF","1014",0,0,0
2018,"ntcheu","kateza",34.9435697,-14.7578669,"KK/UF","1012",0,0,0
2018,"ntcheu","malenga",34.7662697,-14.98891,"KK/UF","1014",0,0,0
2018,"ntcheu","matchereza_pri",34.8483604,-15.2039066,"KK/UF","1014",0,0.1,0.1
2018,"ntcheu","mbwelera",34.7908615,-14.5939935,"KK/UF","1014",0.0333333333333333,0,0.0333333333333333
2018,"ntcheu","mphepo_zinai",34.66565907,-14.73729601,"KK/UF","1013",0,0,0
2018,"ntcheu","msanza",34.8254228,-14.6457474,"KK/UF","1014",0,0,0
2018,"ntcheu","muthe",34.946734,-14.7791346,"KK/UF","1014",0,0.0666666666666667,0.0666666666666667
2018,"ntcheu","mwadzaza",34.752441,-15.0497798,"KK/UF","1014",0.133333333333333,0,0.133333333333333
2018,"ntcheu","njolomole",34.5519731,-14.6489962,"KK/UF","1013",0.0333333333333333,0,0.0333333333333333
2018,"ntcheu","nsangu",34.7044782,-14.8537718,"KK/UF","1013",0,0,0
2018,"ntcheu","phanga_pri",34.71950063,-14.34556419,"KK/UF","1014",0,0,0
2018,"ntcheu","sharpevalley",34.73862797,-14.6120903,"KK/UF","1014",0,0,0
2018,"ntcheu","tsangano_primary",34.6186186,-15.1764479,"KK/UF","1014",0,0,0
2018,"ntchisi","badanjala",33.8855098,-13.3349719,"KK/UF","1014",0.0666666666666667,0,0.0666666666666667
2018,"ntchisi","chadaka",34.0540291,-13.4195029,"KK/UF","1014",0.0333333333333333,0,0.0333333333333333
2018,"ntchisi","chanjoka",34.01329097,-13.19961059,"KK/UF","1014",0,0,0
2018,"ntchisi","chimwala",33.95218666,-13.50740293,"KK/UF","1014",0,0,0
2018,"ntchisi","gobede",34.1164334,-13.4406826,"KK/UF","1014",0,0,0
2018,"ntchisi","gwangwa",33.8025339,-13.4234715,"KK/UF","1014",0,0,0
2018,"ntchisi","kabumba",33.8234177,-13.1341203,"KK/UF","1012",0.0333333333333333,0,0.0333333333333333
2018,"ntchisi","kafantandala",34.0742608,-13.5170969,"KK/UF","1014",0.0333333333333333,0,0.0333333333333333
2018,"ntchisi","kamsonga",33.7990183,-13.2760093,"KK/UF","1014",0.133333333333333,0,0.133333333333333
2018,"ntchisi","kandawe",33.8587651,-13.2868407,"KK/UF","1014",0.1,0.0689655172413793,0.166666666666667
2018,"ntchisi","kapombe",33.93050643,-13.43401251,"KK/UF","1014",0,0,0
2018,"ntchisi","kasamba",33.8498076,-13.1682636,"KK/UF","1014",0,0,0
2018,"ntchisi","kaziwa",33.9242215,-13.4020254,"KK/UF","1114",0,0,0
2018,"ntchisi","mbomba",33.8183377,-13.1651166,"KK/UF","1013",0.1,0,0.1
2018,"ntchisi","mkwalawanjovu",33.8013087,-13.3310672,"KK/UF","1014",0,0,0
2018,"ntchisi","mpamira",34.00271905,-13.39219629,"KK/UF","1014",0.0333333333333333,0,0.0333333333333333
2018,"ntchisi","msanduliza",33.9141945,-13.2457255,"KK/UF","1014",0.0666666666666667,0,0.0666666666666667
2018,"ntchisi","msinda",34.0674935,-13.4735546,"KK/UF","1013",0,0,0
2018,"ntchisi","mtambo",33.9121175,-13.1065162,"KK/UF","1014",0,0,0
2018,"ntchisi","mtuwanjovu_2",33.8606285,-13.1125305,"KK/UF","1014",0,0,0
2018,"ntchisi","mwanaleza",33.9107038,-13.1591237,"KK/UF","1014",0.1,0,0.1
2018,"ntchisi","nyanga",33.98345109,-13.38434272,"KK/UF","1014",0,0,0
2019,"mangochi","chimesya_school",35.3857504,-14.7638393,"KK/UF","1014",0.2,0,0.2
2019,"mangochi","chowe_school",35.3839513,-14.4240017,"KK/UF","1014",0,0,0
2019,"mangochi","funwe",34.9072838,-14.2689573,"KK/UF","1014",0.0666666666666667,0,0.0666666666666667
2019,"mangochi","kadyangunde_school",35.0496412,-14.6318823,"KK/UF","1014",0.6,0,0.6
2019,"mangochi","luwalika_school",35.4423375,-14.2634309,"KK/UF","1014",0,0.0333333333333333,0.0333333333333333
2019,"mangochi","majuni_school",35.4523952,-14.3594192,"KK/UF","1014",0,0,0
2019,"mangochi","malombe_school",35.3488201,-14.6328016,"KK/UF","1014",0.466666666666667,0,0.466666666666667
2019,"mangochi","mchoka_school",35.2201694,-14.4391531,"KK/UF","1014",0.266666666666667,0,0.266666666666667
2019,"mangochi","mdinde_school",35.4485939,-14.1813619,"KK/UF","1014",0.133333333333333,0,0.133333333333333
2019,"mangochi","mgwirizano",35.4168359,-14.2784926,"KK/UF","1014",0.0333333333333333,0,0.0333333333333333
2019,"mangochi","mikombe_school",35.2102933,-14.1616234,"KK/UF","1014",0.166666666666667,0,0.166666666666667
2019,"mangochi","msusa_school",35.6381502,-14.4678715,"KK/UF","1014",0.333333333333333,0,0.333333333333333
2019,"mangochi","st_paul_primary_school",35.1034706,-14.3993761,"KK/UF","1014",0.0333333333333333,0,0.0333333333333333
2019,"mangochi","taliya_school",35.2762818,-14.2275577,"KK/UF","1014",0.0666666666666667,0,0.0666666666666667
2019,"mangochi","ulande_school",35.079986,-14.2421611,"KK/UF","1013",0.166666666666667,0,0.166666666666667
2019,"mwanza","chete",34.3880248,-15.7355065,"KK/UF","1014",0.2,0,0.2
2019,"mwanza","chidoole",34.5039672,-15.502078,"KK/UF","1014",0,0,0
2019,"mwanza","chiwale",34.4622098,-15.6919377,"KK/UF","1014",0,0,0
2019,"mwanza","kadole",34.4703625,-15.5493198,"KK/UF","1014",0.0333333333333333,0,0.0333333333333333
2019,"mwanza","kanjedza",34.4988019,-15.5399142,"KK/UF","1014",0.0333333333333333,0,0.0333333333333333
2019,"mwanza","kaphirikamodzi",34.5565752,-15.7362659,"KK/UF","1014",0.0333333333333333,0,0.0333333333333333
2019,"mwanza","kawale",34.5462088,-15.6077559,"KK/UF","1014",0.0333333333333333,0,0.0333333333333333
2019,"mwanza","khudze",34.5026669,-15.5617853,"KK/UF","1014",0.0333333333333333,0,0.0333333333333333
2019,"mwanza","malambe",34.5741073,-15.5849323,"KK/UF","1014",0,0,0
2019,"mwanza","manjenje",34.4180786,-15.7454493,"KK/UF","1014",0.133333333333333,0,0.133333333333333
2019,"mwanza","milore",34.4533068,-15.5735866,"KK/UF","1014",0.0333333333333333,0,0.0333333333333333
2019,"mwanza","mtandamula",34.5344827,-15.5491964,"KK/UF","1014",0.0333333333333333,0,0.0333333333333333
2019,"mwanza","mtsamika",34.4412946,-15.4973056,"KK/UF","1013",0,0,0
2019,"mwanza","mwanza",34.4845913,-15.5841407,"KK/UF","1014",0.1,0,0.1
2019,"mwanza","namisi",34.571671,-15.7750729,"KK/UF","1014",0.0666666666666667,0,0.0666666666666667
2019,"mwanza","nsambang_ombe",34.4643189,-15.7744181,"KK/UF","1014",0,0,0
2019,"mwanza","nthomba",34.478262,-15.488205,"KK/UF","1014",0.166666666666667,0,0.166666666666667
2019,"mwanza","phaso",34.4729608,-15.7098743,"KK/UF","1014",0,0,0
2019,"mwanza","st_johns",34.515438,-15.5843559,"KK/UF","1014",0.233333333333333,0,0.233333333333333
2019,"mwanza","thawale",34.4999138,-15.6831694,"KK/UF","1014",0.2,0,0.2
2019,"mwanza","thetula",34.4618257,-15.5015884,"KK/UF","1014",0,0,0
2019,"mwanza","tsupe",34.4000002,-15.727144,"KK/UF","1014",0.1,0,0.1
2019,"nkhatabay","banda",34.1999397,-11.1441962,"KK/UF","1014",0,0,0
2019,"nkhatabay","bunga",34.2211295,-11.1374098,"KK/UF","1014",0,0.0333333333333333,0.0333333333333333
2019,"nkhatabay","chendasi",34.0417447,-11.5501518,"KK/UF","1014",0,0,0
2019,"nkhatabay","chilundwe",34.165165,-11.6143179,"KK/UF","1013",0,0.133333333333333,0.133333333333333
2019,"nkhatabay","chinguluwe",34.2132575,-11.5647086,"KK/UF","1014",0.133333333333333,0.0333333333333333,0.166666666666667
2019,"nkhatabay","chiole",34.2143137,-11.7562174,"KK/UF","1014",0,0,0
2019,"nkhatabay","chiomba",34.0452621,-11.9815256,"KK/UF","1014",0,0,0
2019,"nkhatabay","kamundi",34.1482778,-11.6737066,"KK/UF","1014",0.0666666666666667,0,0.0666666666666667
2019,"nkhatabay","kaulasisi",34.0383987,-11.3120452,"KK/UF","1014",0,0,0
2019,"nkhatabay","lichenga",34.2000796,-11.5063493,"KK/UF","1014",0,0.0333333333333333,0.0333333333333333
2019,"nkhatabay","lifupa",33.9637174,-12.0017413,"KK/UF","1014",0.0333333333333333,0,0.0333333333333333
2019,"nkhatabay","macalpine",34.1751836,-11.9193106,"KK/UF","1014",0.0333333333333333,0,0.0333333333333333
2019,"nkhatabay","masefu",34.0399117,-11.660262,"KK/UF","1014",0.0666666666666667,0,0.0666666666666667
2019,"nkhatabay","maula",34.2361136,-11.7528998,"KK/UF","1013",0.0333333333333333,0.1,0.133333333333333
2019,"nkhatabay","mdyaka",34.2253117,-11.7709391,"KK/UF","1012",0,0,0
2019,"nkhatabay","mosanto",33.9946972,-11.5286241,"KK/UF","1014",0,0,0
2019,"nkhatabay","munkhokwe",34.1379521,-11.883603,"KK/UF","1014",0,0,0
2019,"nkhatabay","mzenga",34.0815132,-11.7479975,"KK/UF","1014",0.0333333333333333,0,0.0333333333333333
2019,"nkhatabay","nkhokoma",34.0685124,-11.5500939,"KK/UF","1014",0,0,0
2019,"nkhatabay","sanje",34.2744291,-11.5021109,"KK/UF","1014",0,0,0
2019,"nkhatabay","susa",34.0420761,-11.5131545,"KK/UF","1013",0,0,0
2019,"nkhatabay","thoto",34.2693882,-11.3977908,"KK/UF","1013",0,0,0
2019,"nkhotakota","bowa",34.0900373,-12.5695669,"KK/UF","1014",0.133333333333333,0,0.133333333333333
2019,"nkhotakota","chanthomba",34.2591706,-12.8605945,"KK/UF","1013",0,0,0
2019,"nkhotakota","chikalango",34.222424,-13.0602177,"KK/UF","1014",0.333333333333333,0,0.333333333333333
2019,"nkhotakota","chimgonda",33.9784224,-12.2451363,"KK/UF","1014",0,0.1,0.1
2019,"nkhotakota","chiphole",34.2054062,-12.7285341,"KK/UF","1012",0.166666666666667,0,0.166666666666667
2019,"nkhotakota","dwambazi",33.9980055,-12.2425812,"KK/UF","1014",0,0,0
2019,"nkhotakota","kanyenje",34.223905,-12.8394835,"KK/UF","1013",0.533333333333333,0,0.533333333333333
2019,"nkhotakota","katope",34.1379985,-13.2757695,"KK/UF","1012",0.1,0,0.1
2019,"nkhotakota","khwaphu",34.3229253,-13.2644651,"KK/UF","1014",0.466666666666667,0,0.466666666666667
2019,"nkhotakota","linga",34.2949235,-12.9274355,"KK/UF","1014",0.4,0,0.4
2019,"nkhotakota","matiki",34.1574582,-12.4984567,"KK/UF","1013",0.0666666666666667,0,0.0666666666666667
2019,"nkhotakota","mndale",34.1521287,-13.3898352,"KK/UF","1014",0.0666666666666667,0,0.0666666666666667
2019,"nkhotakota","mndira",34.1955936,-12.7728055,"KK/UF","1014",0.266666666666667,0.0333333333333333,0.266666666666667
2019,"nkhotakota","mpongozipita",33.9697681,-12.2994389,"KK/UF","1014",0.0333333333333333,0.0333333333333333,0.0666666666666667
2019,"nkhotakota","msamala",34.3241509,-13.2407257,"KK/UF","1014",0.333333333333333,0,0.333333333333333
2019,"nkhotakota","nambale",34.1507547,-13.3031467,"KK/UF","1014",0.166666666666667,0,0.166666666666667
2019,"nkhotakota","namsongole",34.1397384,-13.4154284,"KK/UF","1014",0.0333333333333333,0,0.0333333333333333
2019,"nkhotakota","nkk_ccap",34.285513,-12.9311011,"KK/UF","1014",0.166666666666667,0,0.166666666666667
2019,"nkhotakota","nyavuwu",34.1351788,-12.4706096,"KK/UF","1014",0.1,0,0.1
2019,"nkhotakota","our_future",34.1052951,-12.4807451,"KK/UF","1014",0.333333333333333,0.0333333333333333,0.333333333333333
2019,"nkhotakota","tipate",34.1499508,-12.6086692,"KK/UF","1014",0.2,0,0.2
2019,"nkhotakota","wozi_jp",34.2027399,-12.9664443,"KK/UF","1014",0.566666666666667,0,0.566666666666667
2019,"salima","bomira_bay",34.4313687,-13.6153818,"KK/UF","1014",0.0333333333333333,0,0.0333333333333333
2019,"salima","chawila",34.1434424,-13.6055705,"KK/UF","1014",0,0,0
2019,"salima","chigolo",34.4884329,-13.6028758,"KK/UF","1014",0.233333333333333,0,0.233333333333333
2019,"salima","chigombe",34.4337673,-13.7742732,"KK/UF","1012",0.0666666666666667,0.1,0.166666666666667
2019,"salima","chiluwa_1",34.2458171,-13.4687539,"KK/UF","1014",0,0,0
2019,"salima","chimweta",34.4459599,-13.7774276,"KK/UF","1014",0,0.0333333333333333,0.0333333333333333
2019,"salima","chionjeza",34.2939892,-13.4931001,"KK/UF","1013",0.0666666666666667,0,0.0666666666666667
2019,"salima","john",34.4116042,-13.579117,"KK/UF","1014",0,0,0
2019,"salima","kabvunguti",34.3070834,-13.8432291,"KK/UF","1014",0.0333333333333333,0.533333333333333,0.566666666666667
2019,"salima","mama_mia",34.4626159,-13.7889319,"KK/UF","1014",0.0333333333333333,0,0.0333333333333333
2019,"salima","mauni",34.5053163,-14.0425065,"KK/UF","1014",0.0333333333333333,0,0.0333333333333333
2019,"salima","michulu",34.1645097,-13.5299487,"KK/UF","1014",0.0333333333333333,0,0.0333333333333333
2019,"salima","msakanyanda",34.1616846,-13.6547147,"KK/UF","1014",0,0,0
2019,"salima","msaza",34.2451705,-13.6888437,"KK/UF","1014",0.0666666666666667,0,0.0666666666666667
2019,"salima","mtemaiti",34.3838047,-13.8127045,"KK/UF","1014",0.266666666666667,0.233333333333333,0.433333333333333
2019,"salima","mtiya",34.5021304,-14.0201404,"KK/UF","1013",0,0,0
2019,"salima","nakondwa",34.4897826,-13.7309252,"KK/UF","1014",0,0,0
2019,"salima","naliomba",34.4957205,-13.8936543,"KK/UF","1014",0,0,0
2019,"salima","naluva",34.2981992,-13.7525243,"KK/UF","1014",0,0.1,0.1
2019,"salima","nankhata",34.1997816,-13.5505948,"KK/UF","1014",0.133333333333333,0,0.133333333333333
2019,"salima","thokozani",34.5081573,-13.9666541,"KK/UF","1013",0.0666666666666667,0.0666666666666667,0.133333333333333
2019,"salima","thungulu",34.5051977,-14.042678,"KK/UF","1014",0.1,0,0.1
2019,"zomba","chalomwe",35.3437123,-15.423538,"KK/UF","1014",0.166666666666667,0,0.166666666666667
2019,"zomba","chinkhwangwa",35.6212305,-15.4979127,"KK/UF","1014",0.0666666666666667,0,0.0666666666666667
2019,"zomba","guta",35.1254126,-15.2978187,"KK/UF","1013",0.266666666666667,0.4,0.533333333333333
2019,"zomba","kachulu",35.5870758,-15.3777027,"KK/UF","1014",0.333333333333333,0,0.333333333333333
2019,"zomba","kalira",35.113266,-15.4170096,"KK/UF","1013",0,0,0
2019,"zomba","learning_centre",35.3528166,-15.3840725,"KK/UF","1014",0,0,0
2019,"zomba","luwezi",35.1545654,-15.3370629,"KK/UF","1014",0.0333333333333333,0,0.0333333333333333
2019,"zomba","mafuwa",35.4796357,-15.3484619,"KK/UF","1014",0.266666666666667,0,0.266666666666667
2019,"zomba","makumba",35.4527471,-15.3929965,"KK/UF","1014",0.1,0,0.1
2019,"zomba","mapalo",35.408708,-15.2583863,"KK/UF","1014",0.3,0,0.3
2019,"zomba","mchenga",35.3471121,-15.5707146,"KK/UF","1013",0.266666666666667,0,0.266666666666667
2019,"zomba","mikundi",35.5308511,-15.4166239,"KK/UF","1014",0,0,0
2019,"zomba","mitole",35.5677674,-15.4280721,"KK/UF","1014",0.133333333333333,0,0.133333333333333
2019,"zomba","mitondo",35.4735733,-15.5542567,"KK/UF","1014",0.3,0,0.3
2019,"zomba","nakhombe",35.5031669,-15.4148238,"KK/UF","1014",0,0,0
2019,"zomba","namakwena",35.4096857,-15.5184468,"KK/UF","1014",0.3,0,0.3
2019,"zomba","namatamba",35.5804366,-15.5295181,"KK/UF","1014",0.0666666666666667,0,0.0666666666666667
2019,"zomba","nsondole",35.4531474,-15.3050896,"KK/UF","1012",0.233333333333333,0,0.233333333333333
2019,"zomba","satema",35.2975167,-15.3818351,"KK/UF","1013",0.0333333333333333,0,0.0333333333333333
2019,"zomba","sekwere",35.4962315,-15.5278486,"KK/UF","1013",0.133333333333333,0,0.133333333333333
2019,"zomba","st_michaels",35.5160722,-15.4039695,"KK/UF","1014",0.0666666666666667,0,0.0666666666666667
2019,"zomba","taibu",35.4037034,-15.565139,"KK/UF","1014",0.2,0,0.2
